{"meta":{"code":200,"requestId":"576175ae498e3d8507a2a7c6"},"response":{"venues":[{"id":"4ecc3303f5b90c1c343087c6","name":"Disney Springs (Disney Springs (Downtown Disney))","contact":{"twitter":"disneysprings"},"location":{"address":"1490 E Buena Vista Dr","crossStreet":"Walt Disney World","lat":28.370709273355047,"lng":-81.5181512832641,"distance":4653,"postalCode":"32830","cc":"US","city":"Lake Buena Vista","state":"FL","country":"United States","formattedAddress":["1490 E Buena Vista Dr (Walt Disney World)","Lake Buena Vista, FL 32830","United States"]},"categories":[{"id":"4bf58dd8d48988d1f1931735","name":"General Entertainment","pluralName":"General Entertainment","shortName":"Entertainment","icon":{"prefix":"https:\/\/ss3.4sqi.net\/img\/categories_v2\/arts_entertainment\/default_","suffix":".png"},"primary":true}],"verified":true,"stats":{"checkinsCount":30876,"usersCount":20323,"tipCount":145},"url":"https:\/\/www.disneysprings.com","specials":{"count":0,"items":[]},"hereNow":{"count":2,"summary":"2 people are here","groups":[{"type":"others","name":"Other people here","count":2,"items":[]}]},"referralId":"v-1466004911","venueChains":[]},{"id":"4d91f168cbc1224bd50224d5","name":"Walt Disney World Resort","contact":{"phone":"4078244321","formattedPhone":"(407) 824-4321","twitter":"waltdisneyworld","facebook":"155669083273","facebookUsername":"WaltDisneyWorld","facebookName":"Walt Disney World"},"location":{"lat":28.368837379294106,"lng":-81.55437183380126,"distance":1438,"postalCode":"32830","cc":"US","city":"Lake Buena Vista","state":"FL","country":"United States","formattedAddress":["Lake Buena Vista, FL 32830","United States"]},"categories":[{"id":"4bf58dd8d48988d12f951735","name":"Resort","pluralName":"Resorts","shortName":"Resort","icon":{"prefix":"https:\/\/ss3.4sqi.net\/img\/categories_v2\/travel\/resort_","suffix":".png"},"primary":true}],"verified":true,"stats":{"checkinsCount":38505,"usersCount":21516,"tipCount":172},"url":"http:\/\/disneyworld.disney.go.com\/","allowMenuUrlEdit":true,"specials":{"count":0,"items":[]},"hereNow":{"count":0,"summary":"Nobody here","groups":[]},"referralId":"v-1466004911","venueChains":[{"id":"57472dfd498ed8d1fff1106d"}]},{"id":"4b05868bf964a520556522e3","name":"Walt Disney World Dolphin Hotel","contact":{"phone":"4079344000","formattedPhone":"(407) 934-4000","twitter":"swandolphin","facebookUsername":"swananddolphin","facebookName":"Walt Disney World Swan and Dolphin"},"location":{"address":"1500 Epcot Resorts Blvd","crossStreet":"at Buena Vista Dr","lat":28.36755303470224,"lng":-81.5604293346405,"distance":1221,"postalCode":"32830","cc":"US","city":"Lake Buena Vista","state":"FL","country":"United States","formattedAddress":["1500 Epcot Resorts Blvd (at Buena Vista Dr)","Lake Buena Vista, FL 32830","United States"]},"categories":[{"id":"4bf58dd8d48988d12f951735","name":"Resort","pluralName":"Resorts","shortName":"Resort","icon":{"prefix":"https:\/\/ss3.4sqi.net\/img\/categories_v2\/travel\/resort_","suffix":".png"},"primary":true}],"verified":true,"stats":{"checkinsCount":33171,"usersCount":13206,"tipCount":106},"url":"http:\/\/www.swandolphin.com","allowMenuUrlEdit":true,"specials":{"count":0,"items":[]},"venuePage":{"id":"103904305"},"storeId":"468","hereNow":{"count":0,"summary":"Nobody here","groups":[]},"referralId":"v-1466004911","venueChains":[{"id":"5569f692a7c8896abe7cc344"}]},{"id":"4b548d94f964a520babf27e3","name":"Walt Disney World Swan Hotel","contact":{"phone":"4079343000","formattedPhone":"(407) 934-3000","twitter":"swandolphin","facebook":"248786110748","facebookUsername":"swananddolphin","facebookName":"Walt Disney World Swan and Dolphin"},"location":{"address":"1200 Epcot Resorts Blvd","crossStreet":"at Buena Vista Dr","lat":28.36478476213655,"lng":-81.55903503304216,"distance":1558,"postalCode":"32830","cc":"US","city":"Lake Buena Vista","state":"FL","country":"United States","formattedAddress":["1200 Epcot Resorts Blvd (at Buena Vista Dr)","Lake Buena Vista, FL 32830","United States"]},"categories":[{"id":"4bf58dd8d48988d12f951735","name":"Resort","pluralName":"Resorts","shortName":"Resort","icon":{"prefix":"https:\/\/ss3.4sqi.net\/img\/categories_v2\/travel\/resort_","suffix":".png"},"primary":true}],"verified":true,"stats":{"checkinsCount":20651,"usersCount":9484,"tipCount":75},"url":"http:\/\/www.swandolphin.com","allowMenuUrlEdit":true,"specials":{"count":0,"items":[]},"venuePage":{"id":"75725371"},"storeId":"1018","hereNow":{"count":2,"summary":"2 people are here","groups":[{"type":"others","name":"Other people here","count":2,"items":[]}]},"referralId":"v-1466004911","venueChains":[]},{"id":"4acb60d2f964a52094c320e3","name":"Disney's Hollywood Studios","contact":{"phone":"4079396244","formattedPhone":"(407) 939-6244","twitter":"waltdisneyworld"},"location":{"address":"351 S Studio Dr","crossStreet":"at E Buena Vista Dr","lat":28.358062521626124,"lng":-81.55915851166543,"distance":2266,"postalCode":"32830","cc":"US","city":"Lake Buena Vista","state":"FL","country":"United States","formattedAddress":["351 S Studio Dr (at E Buena Vista Dr)","Lake Buena Vista, FL 32830","United States"]},"categories":[{"id":"4bf58dd8d48988d182941735","name":"Theme Park","pluralName":"Theme Parks","shortName":"Theme Park","icon":{"prefix":"https:\/\/ss3.4sqi.net\/img\/categories_v2\/arts_entertainment\/themepark_","suffix":".png"},"primary":true}],"verified":true,"stats":{"checkinsCount":234118,"usersCount":119334,"tipCount":740},"url":"http:\/\/disneyworld.disney.go.com\/","specials":{"count":0,"items":[]},"hereNow":{"count":15,"summary":"15 people are here","groups":[{"type":"others","name":"Other people here","count":15,"items":[]}]},"referralId":"v-1466004911","venueChains":[]},{"id":"4dd5d72de4cd37c8938591ea","name":"Disney Bus Transportation","contact":{"phone":"4079397433","formattedPhone":"(407) 939-7433"},"location":{"crossStreet":"all over Walt Disney World","lat":28.369753981121914,"lng":-81.5659812183577,"distance":897,"postalCode":"32830","cc":"US","city":"Lake Buena Vista","state":"FL","country":"United States","formattedAddress":["all over Walt Disney World","Lake Buena Vista, FL 32830","United States"]},"categories":[{"id":"4bf58dd8d48988d12b951735","name":"Bus Line","pluralName":"Bus Lines","shortName":"Bus","icon":{"prefix":"https:\/\/ss3.4sqi.net\/img\/categories_v2\/travel\/busstation_","suffix":".png"},"primary":true}],"verified":false,"stats":{"checkinsCount":12874,"usersCount":7271,"tipCount":64},"specials":{"count":0,"items":[]},"hereNow":{"count":1,"summary":"One other person is here","groups":[{"type":"others","name":"Other people here","count":1,"items":[]}]},"referralId":"v-1466004911","venueChains":[]},{"id":"4b058693f964a5206e6622e3","name":"Disney's Animal Kingdom","contact":{"phone":"4078244321","formattedPhone":"(407) 824-4321","twitter":"waltdisneyworld"},"location":{"address":"551 Rain Forest Rd","crossStreet":"at Irlo Bronson Memorial Hwy","lat":28.355436143695144,"lng":-81.59010127186774,"distance":3498,"postalCode":"32830","cc":"US","city":"Lake Buena Vista","state":"FL","country":"United States","formattedAddress":["551 Rain Forest Rd (at Irlo Bronson Memorial Hwy)","Lake Buena Vista, FL 32830","United States"]},"categories":[{"id":"4bf58dd8d48988d182941735","name":"Theme Park","pluralName":"Theme Parks","shortName":"Theme Park","icon":{"prefix":"https:\/\/ss3.4sqi.net\/img\/categories_v2\/arts_entertainment\/themepark_","suffix":".png"},"primary":true}],"verified":true,"stats":{"checkinsCount":152883,"usersCount":94201,"tipCount":580},"url":"http:\/\/disneyworld.disney.go.com\/","specials":{"count":0,"items":[]},"hereNow":{"count":4,"summary":"4 people are here","groups":[{"type":"others","name":"Other people here","count":4,"items":[]}]},"referralId":"v-1466004911","venueChains":[]},{"id":"4b05869cf964a520c66722e3","name":"World of Disney","contact":{"phone":"4078281451","formattedPhone":"(407) 828-1451","twitter":"waltdisneyworld"},"location":{"address":"1780 E Buena Vista Dr","crossStreet":"Disney Springs Marketplace","lat":28.371182533507728,"lng":-81.51513486684043,"distance":4936,"postalCode":"32830","cc":"US","city":"Lake Buena Vista","state":"FL","country":"United States","formattedAddress":["1780 E Buena Vista Dr (Disney Springs Marketplace)","Lake Buena Vista, FL 32830","United States"]},"categories":[{"id":"52f2ab2ebcbc57f1066b8b1b","name":"Souvenir Shop","pluralName":"Souvenir Shops","shortName":"Souvenir Shop","icon":{"prefix":"https:\/\/ss3.4sqi.net\/img\/categories_v2\/shops\/default_","suffix":".png"},"primary":true}],"verified":true,"stats":{"checkinsCount":36983,"usersCount":24641,"tipCount":127},"url":"http:\/\/disneyworld.disney.go.com\/destinations\/downtown-disney\/shopping\/world-of-disney\/","allowMenuUrlEdit":true,"specials":{"count":0,"items":[]},"hereNow":{"count":2,"summary":"2 people are here","groups":[{"type":"others","name":"Other people here","count":2,"items":[]}]},"referralId":"v-1466004911","venueChains":[]},{"id":"4b05869bf964a5209e6722e3","name":"AMC Disney Springs 24 with Dine-in Theatres","contact":{"phone":"4078271308","formattedPhone":"(407) 827-1308","twitter":"amctheatres","facebook":"207108197412","facebookUsername":"amctheatres","facebookName":"AMC Theatres"},"location":{"address":"1500 E Buena Vista Dr","crossStreet":"Disney Springs West Side","lat":28.36981154759392,"lng":-81.52129728298736,"distance":4369,"postalCode":"32830","cc":"US","city":"Lake Buena Vista","state":"FL","country":"United States","formattedAddress":["1500 E Buena Vista Dr (Disney Springs West Side)","Lake Buena Vista, FL 32830","United States"]},"categories":[{"id":"4bf58dd8d48988d180941735","name":"Multiplex","pluralName":"Multiplexes","shortName":"Cineplex","icon":{"prefix":"https:\/\/ss3.4sqi.net\/img\/categories_v2\/arts_entertainment\/movietheater_","suffix":".png"},"primary":true}],"verified":true,"stats":{"checkinsCount":61149,"usersCount":21086,"tipCount":236},"url":"http:\/\/www.amctheatres.com\/movie-theatres\/amc-downtown-disney-24-with-dine-in-theatres","menu":{"type":"Prices","label":"Prices","anchor":"View Prices","url":"https:\/\/disneyworld.disney.go.com\/dining\/downtown-disney\/fork-and-screen-dine-in-theatre\/menus\/","mobileUrl":"https:\/\/disneyworld.disney.go.com\/dining\/downtown-disney\/fork-and-screen-dine-in-theatre\/menus\/","externalUrl":"https:\/\/disneyworld.disney.go.com\/dining\/downtown-disney\/fork-and-screen-dine-in-theatre\/menus\/"},"specials":{"count":0,"items":[]},"events":{"count":21,"summary":"21 movies"},"storeId":"572","hereNow":{"count":0,"summary":"Nobody here","groups":[]},"referralId":"v-1466004911","venueChains":[{"id":"556cdd65aceaff43eb03dde7"}]},{"id":"4b05868bf964a520616522e3","name":"Disney's Yacht Club Resort","contact":{"phone":"4079347000","formattedPhone":"(407) 934-7000","twitter":"waltdisneyworld"},"location":{"address":"1700 Epcot Resorts Blvd","crossStreet":"Walt Disney World","lat":28.370804637447826,"lng":-81.55889822627469,"distance":977,"postalCode":"32830","cc":"US","city":"Lake Buena Vista","state":"FL","country":"United States","formattedAddress":["1700 Epcot Resorts Blvd (Walt Disney World)","Lake Buena Vista, FL 32830","United States"]},"categories":[{"id":"4bf58dd8d48988d12f951735","name":"Resort","pluralName":"Resorts","shortName":"Resort","icon":{"prefix":"https:\/\/ss3.4sqi.net\/img\/categories_v2\/travel\/resort_","suffix":".png"},"primary":true}],"verified":true,"stats":{"checkinsCount":21169,"usersCount":8036,"tipCount":65},"url":"http:\/\/disneyworld.disney.go.com\/resorts\/yacht-club-resort","allowMenuUrlEdit":true,"specials":{"count":0,"items":[]},"hereNow":{"count":0,"summary":"Nobody here","groups":[]},"referralId":"v-1466004911","venueChains":[]},{"id":"4b119bddf964a5207a8023e3","name":"Disney's Beach Club Resort","contact":{"phone":"4079348000","formattedPhone":"(407) 934-8000","twitter":"waltdisneyworld"},"location":{"address":"1800 Epcot Resorts Blvd","crossStreet":"Walt Disney World","lat":28.370978545869356,"lng":-81.55656695365904,"distance":1118,"postalCode":"32830","cc":"US","city":"Lake Buena Vista","state":"FL","country":"United States","formattedAddress":["1800 Epcot Resorts Blvd (Walt Disney World)","Lake Buena Vista, FL 32830","United States"]},"categories":[{"id":"4bf58dd8d48988d12f951735","name":"Resort","pluralName":"Resorts","shortName":"Resort","icon":{"prefix":"https:\/\/ss3.4sqi.net\/img\/categories_v2\/travel\/resort_","suffix":".png"},"primary":true}],"verified":true,"stats":{"checkinsCount":27109,"usersCount":9876,"tipCount":97},"url":"http:\/\/disneyworld.disney.go.com\/","allowMenuUrlEdit":true,"specials":{"count":0,"items":[]},"hereNow":{"count":0,"summary":"Nobody here","groups":[]},"referralId":"v-1466004911","venueChains":[]},{"id":"4b68b8e3f964a5202b892be3","name":"Walt Disney: One Man's Dream","contact":{"twitter":"waltdisneyworld"},"location":{"address":"Animation Courtyard, Hollywood Studios","crossStreet":"Walt Disney World","lat":28.357208161879086,"lng":-81.56098420131387,"distance":2322,"postalCode":"32830","cc":"US","city":"Lake Buena Vista","state":"FL","country":"United States","formattedAddress":["Animation Courtyard, Hollywood Studios (Walt Disney World)","Lake Buena Vista, FL 32830","United States"]},"categories":[{"id":"4bf58dd8d48988d181941735","name":"Museum","pluralName":"Museums","shortName":"Museum","icon":{"prefix":"https:\/\/ss3.4sqi.net\/img\/categories_v2\/arts_entertainment\/museum_","suffix":".png"},"primary":true}],"verified":true,"stats":{"checkinsCount":7015,"usersCount":4878,"tipCount":51},"url":"http:\/\/disneyworld.disney.go.com\/","specials":{"count":0,"items":[]},"hereNow":{"count":0,"summary":"Nobody here","groups":[]},"referralId":"v-1466004911","venueChains":[]},{"id":"4b05868af964a5202d6522e3","name":"Disney's Coronado Springs Resort and Convention Center","contact":{"phone":"4079393888","formattedPhone":"(407) 939-3888","twitter":"waltdisneyworld"},"location":{"address":"1000 W Buena Vista Dr","crossStreet":"Walt Disney World","lat":28.36265398232709,"lng":-81.57252207398415,"distance":1837,"postalCode":"32830","cc":"US","city":"Lake Buena Vista","state":"FL","country":"United States","formattedAddress":["1000 W Buena Vista Dr (Walt Disney World)","Lake Buena Vista, FL 32830","United States"]},"categories":[{"id":"4bf58dd8d48988d12f951735","name":"Resort","pluralName":"Resorts","shortName":"Resort","icon":{"prefix":"https:\/\/ss3.4sqi.net\/img\/categories_v2\/travel\/resort_","suffix":".png"},"primary":true}],"verified":true,"stats":{"checkinsCount":32910,"usersCount":12444,"tipCount":124},"url":"http:\/\/disneyworld.disney.go.com\/resorts\/coronado-springs-resort\/","allowMenuUrlEdit":true,"specials":{"count":0,"items":[]},"hereNow":{"count":0,"summary":"Nobody here","groups":[]},"referralId":"v-1466004911","venueChains":[]},{"id":"4b5effb6f964a52096a129e3","name":"Disney Junior - Live on Stage","contact":{"twitter":"waltdisneyworld"},"location":{"address":"Animation Courtyard, Hollywood Studios","crossStreet":"Walt Disney World","lat":28.357855035856105,"lng":-81.56076003919982,"distance":2255,"postalCode":"32820","cc":"US","city":"Lake Buena Vista","state":"FL","country":"United States","formattedAddress":["Animation Courtyard, Hollywood Studios (Walt Disney World)","Lake Buena Vista, FL 32820","United States"]},"categories":[{"id":"5109983191d435c0d71c2bb1","name":"Theme Park Ride \/ Attraction","pluralName":"Theme Park Rides\/Attractions","shortName":"Theme Park","icon":{"prefix":"https:\/\/ss3.4sqi.net\/img\/categories_v2\/arts_entertainment\/themepark_","suffix":".png"},"primary":true}],"verified":true,"stats":{"checkinsCount":7424,"usersCount":4544,"tipCount":42},"url":"http:\/\/disneyworld.disney.go.com\/","specials":{"count":0,"items":[]},"hereNow":{"count":0,"summary":"Nobody here","groups":[]},"referralId":"v-1466004911","venueChains":[]},{"id":"53ee3d5c498e9e6365d6efbd","name":"Disney Springs Orange Parking Garage","contact":{},"location":{"address":"1496 E Buena Vista Dr","lat":28.369280869063367,"lng":-81.52042380384978,"distance":4465,"postalCode":"32830","cc":"US","city":"Lake Buena Vista","state":"FL","country":"United States","formattedAddress":["1496 E Buena Vista Dr","Lake Buena Vista, FL 32830","United States"]},"categories":[{"id":"4c38df4de52ce0d596b336e1","name":"Parking","pluralName":"Parking","shortName":"Parking","icon":{"prefix":"https:\/\/ss3.4sqi.net\/img\/categories_v2\/building\/parking_","suffix":".png"},"primary":true}],"verified":false,"stats":{"checkinsCount":1743,"usersCount":605,"tipCount":1},"specials":{"count":0,"items":[]},"hereNow":{"count":0,"summary":"Nobody here","groups":[]},"referralId":"v-1466004911","venueChains":[]},{"id":"515f0770498e18f68308993e","name":"Walt Disney World Sign","contact":{},"location":{"lat":28.364188943691072,"lng":-81.5314996256826,"distance":3611,"postalCode":"34787","cc":"US","city":"Lake Buena Vista","state":"FL","country":"United States","formattedAddress":["Lake Buena Vista, FL 34787","United States"]},"categories":[{"id":"4bf58dd8d48988d12d941735","name":"Monument \/ Landmark","pluralName":"Monuments \/ Landmarks","shortName":"Landmark","icon":{"prefix":"https:\/\/ss3.4sqi.net\/img\/categories_v2\/building\/government_monument_","suffix":".png"},"primary":true}],"verified":false,"stats":{"checkinsCount":5380,"usersCount":2467,"tipCount":13},"specials":{"count":0,"items":[]},"hereNow":{"count":0,"summary":"Nobody here","groups":[]},"referralId":"v-1466004911","venueChains":[]},{"id":"4b9edcd9f964a520fc0637e3","name":"Disney Springs West Side","contact":{"phone":"4079343000","formattedPhone":"(407) 934-3000","twitter":"waltdisneyworld"},"location":{"address":"1490 E Buena Vista Dr","crossStreet":"Walt Disney World","lat":28.369680990066243,"lng":-81.519403738559,"distance":4553,"postalCode":"32830","cc":"US","city":"Lake Buena Vista","state":"FL","country":"United States","formattedAddress":["1490 E Buena Vista Dr (Walt Disney World)","Lake Buena Vista, FL 32830","United States"]},"categories":[{"id":"4bf58dd8d48988d164941735","name":"Plaza","pluralName":"Plazas","shortName":"Plaza","icon":{"prefix":"https:\/\/ss3.4sqi.net\/img\/categories_v2\/parks_outdoors\/plaza_","suffix":".png"},"primary":true}],"verified":true,"stats":{"checkinsCount":63299,"usersCount":39461,"tipCount":156},"url":"http:\/\/disneyworld.disney.go.com\/","allowMenuUrlEdit":true,"specials":{"count":0,"items":[]},"hereNow":{"count":0,"summary":"Nobody here","groups":[]},"referralId":"v-1466004911","venueChains":[]},{"id":"5738d5be38fad9b0bc7520d2","name":"Disney Springs Lime Parking Garage","contact":{},"location":{"address":"Disney Springs","crossStreet":"Walt Disney World","lat":28.3705623662846,"lng":-81.51553642066538,"distance":4908,"postalCode":"32830","cc":"US","city":"Lake Buena Vista","state":"FL","country":"United States","formattedAddress":["Disney Springs (Walt Disney World)","Lake Buena Vista, FL 32830","United States"]},"categories":[{"id":"4c38df4de52ce0d596b336e1","name":"Parking","pluralName":"Parking","shortName":"Parking","icon":{"prefix":"https:\/\/ss3.4sqi.net\/img\/categories_v2\/building\/parking_","suffix":".png"},"primary":true}],"verified":false,"stats":{"checkinsCount":166,"usersCount":114,"tipCount":0},"specials":{"count":0,"items":[]},"hereNow":{"count":0,"summary":"Nobody here","groups":[]},"referralId":"v-1466004911","venueChains":[]},{"id":"4b1a4c3ef964a520b9e823e3","name":"Disney University","contact":{"phone":"4079380282","formattedPhone":"(407) 938-0282"},"location":{"address":"5555 Center Dr","lat":28.428010990943726,"lng":-81.57789699531943,"distance":5734,"postalCode":"32830","cc":"US","city":"Lake Buena Vista","state":"FL","country":"United States","formattedAddress":["5555 Center Dr","Lake Buena Vista, FL 32830","United States"]},"categories":[{"id":"4bf58dd8d48988d13b941735","name":"School","pluralName":"Schools","shortName":"School","icon":{"prefix":"https:\/\/ss3.4sqi.net\/img\/categories_v2\/building\/school_","suffix":".png"},"primary":true}],"verified":false,"stats":{"checkinsCount":13980,"usersCount":3927,"tipCount":12},"specials":{"count":0,"items":[]},"hereNow":{"count":1,"summary":"One other person is here","groups":[{"type":"others","name":"Other people here","count":1,"items":[]}]},"referralId":"v-1466004911","venueChains":[]},{"id":"4dd28d06b0fb0becaf9acae3","name":"Walt Disney World Entrance","contact":{},"location":{"address":"Hotel Plaza Blvd.","crossStreet":"at SR 535","lat":28.38151451724822,"lng":-81.5077759763506,"distance":5618,"postalCode":"32830","cc":"US","city":"Lake Buena Vista","state":"FL","country":"United States","formattedAddress":["Hotel Plaza Blvd. (at SR 535)","Lake Buena Vista, FL 32830","United States"]},"categories":[{"id":"4bf58dd8d48988d165941735","name":"Scenic Lookout","pluralName":"Scenic Lookouts","shortName":"Scenic Lookout","icon":{"prefix":"https:\/\/ss3.4sqi.net\/img\/categories_v2\/parks_outdoors\/sceniclookout_","suffix":".png"},"primary":true}],"verified":false,"stats":{"checkinsCount":13190,"usersCount":5938,"tipCount":25},"specials":{"count":0,"items":[]},"hereNow":{"count":0,"summary":"Nobody here","groups":[]},"referralId":"v-1466004911","venueChains":[]},{"id":"4ac9055ef964a52012be20e3","name":"Disney Springs Marketplace","contact":{"phone":"4078283800","formattedPhone":"(407) 828-3800","twitter":"disneysprings"},"location":{"address":"1490 E Buena Vista Dr","crossStreet":"Walt Disney World","lat":28.371625144388254,"lng":-81.5150249004364,"distance":4940,"postalCode":"32830","cc":"US","city":"Lake Buena Vista","state":"FL","country":"United States","formattedAddress":["1490 E Buena Vista Dr (Walt Disney World)","Lake Buena Vista, FL 32830","United States"]},"categories":[{"id":"50be8ee891d4fa8dcc7199a7","name":"Market","pluralName":"Markets","shortName":"Market","icon":{"prefix":"https:\/\/ss3.4sqi.net\/img\/categories_v2\/shops\/market_","suffix":".png"},"primary":true}],"verified":true,"stats":{"checkinsCount":135964,"usersCount":78739,"tipCount":374},"url":"http:\/\/www.disneysprings.com","allowMenuUrlEdit":true,"specials":{"count":0,"items":[]},"hereNow":{"count":0,"summary":"Nobody here","groups":[]},"referralId":"v-1466004911","venueChains":[]},{"id":"4b072e3bf964a520fdf822e3","name":"Disney's Boardwalk Inn","contact":{"phone":"4078282222","formattedPhone":"(407) 828-2222","twitter":"waltdisneyworld"},"location":{"address":"2101 Epcot Resorts Blvd","crossStreet":"Walt Disney World","lat":28.366221586218856,"lng":-81.55466516125308,"distance":1635,"postalCode":"32830","cc":"US","city":"Lake Buena Vista","state":"FL","country":"United States","formattedAddress":["2101 Epcot Resorts Blvd (Walt Disney World)","Lake Buena Vista, FL 32830","United States"]},"categories":[{"id":"4bf58dd8d48988d12f951735","name":"Resort","pluralName":"Resorts","shortName":"Resort","icon":{"prefix":"https:\/\/ss3.4sqi.net\/img\/categories_v2\/travel\/resort_","suffix":".png"},"primary":true}],"verified":true,"stats":{"checkinsCount":25865,"usersCount":10034,"tipCount":70},"url":"http:\/\/disneyworld.disney.go.com\/","allowMenuUrlEdit":true,"specials":{"count":0,"items":[]},"hereNow":{"count":0,"summary":"Nobody here","groups":[]},"referralId":"v-1466004911","venueChains":[]},{"id":"4ec5d2d8b634b2fd72826408","name":"Disney Springs Parking Lot","contact":{"twitter":"wdwdowntown"},"location":{"address":"Disney Springs","crossStreet":"Walt Disney World","lat":28.370164988098583,"lng":-81.5166457558697,"distance":4809,"postalCode":"32820","cc":"US","city":"Lake Buena Vista","state":"FL","country":"United States","formattedAddress":["Disney Springs (Walt Disney World)","Lake Buena Vista, FL 32820","United States"]},"categories":[{"id":"4c38df4de52ce0d596b336e1","name":"Parking","pluralName":"Parking","shortName":"Parking","icon":{"prefix":"https:\/\/ss3.4sqi.net\/img\/categories_v2\/building\/parking_","suffix":".png"},"primary":true}],"verified":false,"stats":{"checkinsCount":6597,"usersCount":3843,"tipCount":15},"specials":{"count":0,"items":[]},"hereNow":{"count":0,"summary":"Nobody here","groups":[]},"referralId":"v-1466004911","venueChains":[]},{"id":"4b1d25fef964a520420c24e3","name":"Team Disney","contact":{"twitter":"WaltDisneyWorld"},"location":{"address":"1375 E Buena Vista Dr","lat":28.366291336135834,"lng":-81.52138710021973,"distance":4456,"postalCode":"32830","cc":"US","city":"Lake Buena Vista","state":"FL","country":"United States","formattedAddress":["1375 E Buena Vista Dr","Lake Buena Vista, FL 32830","United States"]},"categories":[{"id":"4bf58dd8d48988d124941735","name":"Office","pluralName":"Offices","shortName":"Office","icon":{"prefix":"https:\/\/ss3.4sqi.net\/img\/categories_v2\/building\/default_","suffix":".png"},"primary":true}],"verified":false,"stats":{"checkinsCount":11604,"usersCount":2123,"tipCount":6},"url":"http:\/\/disneyworld.disney.go.com\/","specials":{"count":0,"items":[]},"hereNow":{"count":1,"summary":"One other person is here","groups":[{"type":"others","name":"Other people here","count":1,"items":[]}]},"referralId":"v-1466004911","venueChains":[]},{"id":"573236e9498e9a22f5e8dc8d","name":"Disney Springs Town Center","contact":{},"location":{"address":"Disney Springs","crossStreet":"Walt Disney World","lat":28.37003267595657,"lng":-81.51795335705336,"distance":4685,"postalCode":"32830","cc":"US","city":"Lake Buena Vista","state":"FL","country":"United States","formattedAddress":["Disney Springs (Walt Disney World)","Lake Buena Vista, FL 32830","United States"]},"categories":[{"id":"4bf58dd8d48988d1fd941735","name":"Shopping Mall","pluralName":"Shopping Malls","shortName":"Mall","icon":{"prefix":"https:\/\/ss3.4sqi.net\/img\/categories_v2\/shops\/mall_","suffix":".png"},"primary":true}],"verified":false,"stats":{"checkinsCount":93,"usersCount":68,"tipCount":0},"specials":{"count":0,"items":[]},"hereNow":{"count":0,"summary":"Nobody here","groups":[]},"referralId":"v-1466004911","venueChains":[]},{"id":"5083095ce4b0607ce9339593","name":"Walt Disney World Railroad - Main Street Station","contact":{"twitter":"waltdisneyworld"},"location":{"address":"1180 7 Seas Dr.","lat":28.417193820746263,"lng":-81.58118152618408,"distance":4666,"postalCode":"32830","cc":"US","city":"Lake Buena Vista","state":"FL","country":"United States","formattedAddress":["1180 7 Seas Dr.","Lake Buena Vista, FL 32830","United States"]},"categories":[{"id":"4bf58dd8d48988d129951735","name":"Train Station","pluralName":"Train Stations","shortName":"Train Station","icon":{"prefix":"https:\/\/ss3.4sqi.net\/img\/categories_v2\/travel\/trainstation_","suffix":".png"},"primary":true}],"verified":true,"stats":{"checkinsCount":12205,"usersCount":8253,"tipCount":30},"url":"http:\/\/disneyworld.disney.go.com\/","specials":{"count":0,"items":[]},"hereNow":{"count":0,"summary":"Nobody here","groups":[]},"referralId":"v-1466004911","venueChains":[]},{"id":"4b2fea07f964a5207cf224e3","name":"Disney's Port Orleans Riverside Resort","contact":{"phone":"4079396244","formattedPhone":"(407) 939-6244","twitter":"waltdisneyworld"},"location":{"address":"1251 Riverside Dr","crossStreet":"Walt Disney World","lat":28.386048573311484,"lng":-81.53680193087767,"distance":2909,"postalCode":"32830","cc":"US","city":"Lake Buena Vista","state":"FL","country":"United States","formattedAddress":["1251 Riverside Dr (Walt Disney World)","Lake Buena Vista, FL 32830","United States"]},"categories":[{"id":"4bf58dd8d48988d1fa931735","name":"Hotel","pluralName":"Hotels","shortName":"Hotel","icon":{"prefix":"https:\/\/ss3.4sqi.net\/img\/categories_v2\/travel\/hotel_","suffix":".png"},"primary":true}],"verified":true,"stats":{"checkinsCount":33643,"usersCount":10722,"tipCount":133},"url":"http:\/\/disneyworld.disney.go.com\/","allowMenuUrlEdit":true,"specials":{"count":0,"items":[]},"hereNow":{"count":1,"summary":"One other person is here","groups":[{"type":"others","name":"Other people here","count":1,"items":[]}]},"referralId":"v-1466004911","venueChains":[]},{"id":"4b058691f964a5202e6622e3","name":"Disney Springs The Landing","contact":{"twitter":"waltdisneyworld"},"location":{"address":"1780 E Buena Vista Dr","lat":28.37128056903653,"lng":-81.51803098618984,"distance":4654,"postalCode":"32830","cc":"US","city":"Lake Buena Vista","state":"FL","country":"United States","formattedAddress":["1780 E Buena Vista Dr","Lake Buena Vista, FL 32830","United States"]},"categories":[{"id":"4bf58dd8d48988d1f1931735","name":"General Entertainment","pluralName":"General Entertainment","shortName":"Entertainment","icon":{"prefix":"https:\/\/ss3.4sqi.net\/img\/categories_v2\/arts_entertainment\/default_","suffix":".png"},"primary":true}],"verified":true,"stats":{"checkinsCount":22833,"usersCount":15719,"tipCount":76},"url":"http:\/\/disneyparks.com","specials":{"count":0,"items":[]},"hereNow":{"count":0,"summary":"Nobody here","groups":[]},"referralId":"v-1466004911","venueChains":[]},{"id":"4c892d484f239521dbc149ee","name":"Disney Cruise Line","contact":{"phone":"4075663500","formattedPhone":"(407) 566-3500"},"location":{"address":"210 Celebration Pl","lat":28.328926834011796,"lng":-81.533369547859,"distance":6257,"postalCode":"34747","cc":"US","city":"Celebration","state":"FL","country":"United States","formattedAddress":["210 Celebration Pl","Celebration, FL 34747","United States"]},"categories":[{"id":"4bf58dd8d48988d124941735","name":"Office","pluralName":"Offices","shortName":"Office","icon":{"prefix":"https:\/\/ss3.4sqi.net\/img\/categories_v2\/building\/default_","suffix":".png"},"primary":true}],"verified":false,"stats":{"checkinsCount":12075,"usersCount":343,"tipCount":3},"url":"http:\/\/www.disneycruise.com","specials":{"count":0,"items":[]},"hereNow":{"count":1,"summary":"One other person is here","groups":[{"type":"others","name":"Other people here","count":1,"items":[]}]},"referralId":"v-1466004911","venueChains":[{"id":"57472dfd498ed8d1fff1106d"}]},{"id":"567c19cc498e99f50252f39f","name":"Disney & Pixar Short Film Festival (Magic Eye Theater)","contact":{},"location":{"address":"Imagination Pavilion, Epcot","crossStreet":"Walt Disney World","lat":28.372742603769098,"lng":-81.55111273971762,"distance":1469,"postalCode":"32830","cc":"US","city":"Lake Buena Vista","state":"FL","country":"United States","formattedAddress":["Imagination Pavilion, Epcot (Walt Disney World)","Lake Buena Vista, FL 32830","United States"]},"categories":[{"id":"4bf58dd8d48988d17f941735","name":"Movie Theater","pluralName":"Movie Theaters","shortName":"Movie Theater","icon":{"prefix":"https:\/\/ss3.4sqi.net\/img\/categories_v2\/arts_entertainment\/movietheater_","suffix":".png"},"primary":true}],"verified":false,"stats":{"checkinsCount":668,"usersCount":629,"tipCount":6},"specials":{"count":0,"items":[]},"hereNow":{"count":0,"summary":"Nobody here","groups":[]},"referralId":"v-1466004911","venueChains":[]}]}}